{
"type": "FeatureCollection",
"crs": { "type": "name", "properties": { "name": "urn:ogc:def:crs:OGC:1.3:CRS84" } },
                                                                                                                                  
"features": [
{ "type": "Feature", "properties": { "NOM": "Angrignon", "X": 296710.814300, "Y": 5034002.504800, "TERMINUS": 1, "STATIONNEM": 1, "METRO": 1, "EQUIP": "Terminus | Stationnement | Metro", "longitude": -73.603409, "latitude": 45.445907 }, "geometry": { "type": "Point", "coordinates": [ -73.603409153218308, 45.445906954336273 ] } },
{ "type": "Feature", "properties": { "NOM": "Beauharnois", "X": 275551.284000, "Y": 5019476.416000, "TERMINUS": 0, "STATIONNEM": 1, "METRO": 0, "EQUIP": "Stationnement", "longitude": -73.873041, "latitude": 45.314630 }, "geometry": { "type": "Point", "coordinates": [ -73.873040502697279, 45.314629763670972 ] } },
{ "type": "Feature", "properties": { "NOM": "Brossard-Chevrier", "X": 309226.677600, "Y": 5035163.955100, "TERMINUS": 0, "STATIONNEM": 1, "METRO": 0, "EQUIP": "Stationnement", "longitude": -73.443401, "latitude": 45.456391 }, "geometry": { "type": "Point", "coordinates": [ -73.443400508445833, 45.456391064802013 ] } },
{ "type": "Feature", "properties": { "NOM": "Brossard-Panama", "X": 307226.509700, "Y": 5036331.510800, "TERMINUS": 1, "STATIONNEM": 1, "METRO": 0, "EQUIP": "Terminus | Stationnement", "longitude": -73.468969, "latitude": 45.466907 }, "geometry": { "type": "Point", "coordinates": [ -73.468968883234268, 45.466907117337882 ] } },
{ "type": "Feature", "properties": { "NOM": "Cartier", "X": 290558.656400, "Y": 5046665.725000, "TERMINUS": 1, "STATIONNEM": 1, "METRO": 0, "EQUIP": "Terminus | Stationnement | Metro", "longitude": -73.682423, "latitude": 45.559757 }, "geometry": { "type": "Point", "coordinates": [ -73.682423382916383, 45.559757212455104 ] } },
{ "type": "Feature", "properties": { "NOM": "TCV", "X": 299628.339500, "Y": 5039817.777000, "TERMINUS": 1, "STATIONNEM": 0, "METRO": 1, "EQUIP": "Terminus | Metro", "longitude": -73.566174, "latitude": 45.498263 }, "geometry": { "type": "Point", "coordinates": [ -73.566173833901075, 45.498263201061029 ] } },
{ "type": "Feature", "properties": { "NOM": "Chambly", "X": 320190.633400, "Y": 5032547.403100, "TERMINUS": 0, "STATIONNEM": 1, "METRO": 0, "EQUIP": "Stationnement", "longitude": -73.303298, "latitude": 45.432691 }, "geometry": { "type": "Point", "coordinates": [ -73.303297767777551, 45.432690618792428 ] } },
{ "type": "Feature", "properties": { "NOM": "Chateauguay", "X": 288249.397400, "Y": 5025084.790300, "TERMINUS": 0, "STATIONNEM": 1, "METRO": 0, "EQUIP": "Stationnement", "longitude": -73.711277, "latitude": 45.365512 }, "geometry": { "type": "Point", "coordinates": [ -73.711276874165094, 45.365511556673574 ] } },
{ "type": "Feature", "properties": { "NOM": "Cote-Vertu", "X": 290485.530200, "Y": 5041522.961800, "TERMINUS": 1, "STATIONNEM": 0, "METRO": 1, "EQUIP": "Terminus | Metro", "longitude": -73.683210, "latitude": 45.513479 }, "geometry": { "type": "Point", "coordinates": [ -73.683209745469739, 45.513479427161037 ] } },
{ "type": "Feature", "properties": { "NOM": "De Montarville", "X": 308684.886200, "Y": 5051233.898400, "TERMINUS": 1, "STATIONNEM": 1, "METRO": 0, "EQUIP": "Terminus | Stationnement", "longitude": -73.450200, "latitude": 45.600998 }, "geometry": { "type": "Point", "coordinates": [ -73.450200408913318, 45.600997844447853 ] } },
{ "type": "Feature", "properties": { "NOM": "Georges-Gagne", "X": 301013.828900, "Y": 5027193.133400, "TERMINUS": 0, "STATIONNEM": 1, "METRO": 0, "EQUIP": "Stationnement", "longitude": -73.548349, "latitude": 45.384669 }, "geometry": { "type": "Point", "coordinates": [ -73.548348723725894, 45.384668930967301 ] } },
{ "type": "Feature", "properties": { "NOM": "La Prairie", "X": 306361.564700, "Y": 5031757.681100, "TERMINUS": 0, "STATIONNEM": 1, "METRO": 0, "EQUIP": "Stationnement", "longitude": -73.480045, "latitude": 45.425752 }, "geometry": { "type": "Point", "coordinates": [ -73.480044640573993, 45.425751891192235 ] } },
{ "type": "Feature", "properties": { "NOM": "Le Carrefour", "X": 285448.297600, "Y": 5047599.188700, "TERMINUS": 1, "STATIONNEM": 1, "METRO": 0, "EQUIP": "Terminus | Stationnement", "longitude": -73.747921, "latitude": 45.568033 }, "geometry": { "type": "Point", "coordinates": [ -73.747920533563345, 45.568033462776818 ] } },
{ "type": "Feature", "properties": { "NOM": "Longueuil", "X": 303105.358500, "Y": 5042618.694600, "TERMINUS": 1, "STATIONNEM": 1, "METRO": 1, "EQUIP": "Terminus | Stationnement | Metro", "longitude": -73.521693, "latitude": 45.523484 }, "geometry": { "type": "Point", "coordinates": [ -73.521693423528745, 45.52348413540026 ] } },
{ "type": "Feature", "properties": { "NOM": "Mercier", "X": 285554.753800, "Y": 5018956.926000, "TERMINUS": 0, "STATIONNEM": 1, "METRO": 0, "EQUIP": "Stationnement", "longitude": -73.745437, "latitude": 45.310300 }, "geometry": { "type": "Point", "coordinates": [ -73.745436738871589, 45.310300495838788 ] } },
{ "type": "Feature", "properties": { "NOM": "Montmorency", "X": 287590.948000, "Y": 5046438.719000, "TERMINUS": 1, "STATIONNEM": 1, "METRO": 1, "EQUIP": "Terminus | Stationnement | Metro", "longitude": -73.720430, "latitude": 45.557648 }, "geometry": { "type": "Point", "coordinates": [ -73.720429766602066, 45.557647519490857 ] } },
{ "type": "Feature", "properties": { "NOM": "Namur", "X": 292665.333200, "Y": 5039283.734200, "TERMINUS": 0, "STATIONNEM": 1, "METRO": 1, "EQUIP": "Stationnement | Metro", "longitude": -73.655255, "latitude": 45.493371 }, "geometry": { "type": "Point", "coordinates": [ -73.655255340991346, 45.493371308086807 ] } },
{ "type": "Feature", "properties": { "NOM": "Radisson", "X": 301781.137000, "Y": 5049997.921300, "TERMINUS": 1, "STATIONNEM": 1, "METRO": 1, "EQUIP": "Terminus | Stationnement | Metro", "longitude": -73.538691, "latitude": 45.589880 }, "geometry": { "type": "Point", "coordinates": [ -73.538690569665675, 45.58988047387205 ] } },
{ "type": "Feature", "properties": { "NOM": "Repentigny", "X": 308397.198200, "Y": 5067414.088500, "TERMINUS": 1, "STATIONNEM": 1, "METRO": 0, "EQUIP": "Terminus | Stationnement", "longitude": -73.453769, "latitude": 45.746591 }, "geometry": { "type": "Point", "coordinates": [ -73.453768500090817, 45.746591286316637 ] } },
{ "type": "Feature", "properties": { "NOM": "Saint-Eustache", "X": 274135.513000, "Y": 5046900.124900, "TERMINUS": 1, "STATIONNEM": 1, "METRO": 0, "EQUIP": "Terminus | Stationnement", "longitude": -73.892805, "latitude": 45.561337 }, "geometry": { "type": "Point", "coordinates": [ -73.892805410343428, 45.561336734855189 ] } },
{ "type": "Feature", "properties": { "NOM": "Sainte-Julie", "X": 318060.622400, "Y": 5049056.895900, "TERMINUS": 0, "STATIONNEM": 1, "METRO": 0, "EQUIP": "Stationnement", "longitude": -73.330074, "latitude": 45.581293 }, "geometry": { "type": "Point", "coordinates": [ -73.330074161413251, 45.58129301718246 ] } },
{ "type": "Feature", "properties": { "NOM": "Sainte-Therese", "X": 278736.250300, "Y": 5055151.709500, "TERMINUS": 1, "STATIONNEM": 0, "METRO": 0, "EQUIP": "Terminus", "longitude": -73.834313, "latitude": 45.635773 }, "geometry": { "type": "Point", "coordinates": [ -73.834312703099386, 45.635772976456956 ] } },
{ "type": "Feature", "properties": { "NOM": "Seigneurial", "X": 316883.585700, "Y": 5041588.464700, "TERMINUS": 0, "STATIONNEM": 1, "METRO": 0, "EQUIP": "Stationnement", "longitude": -73.345341, "latitude": 45.514111 }, "geometry": { "type": "Point", "coordinates": [ -73.345341431462245, 45.514111072952936 ] } },
{ "type": "Feature", "properties": { "NOM": "Sherbrooke", "X": 304326.130100, "Y": 5058648.578700, "TERMINUS": 0, "STATIONNEM": 1, "METRO": 0, "EQUIP": "Stationnement", "longitude": -73.506082, "latitude": 45.667727 }, "geometry": { "type": "Point", "coordinates": [ -73.506081658463003, 45.667727479917936 ] } },
{ "type": "Feature", "properties": { "NOM": "Terrebonne", "X": 292799.856000, "Y": 5062142.320100, "TERMINUS": 1, "STATIONNEM": 1, "METRO": 0, "EQUIP": "Terminus | Stationnement", "longitude": -73.654096, "latitude": 45.699061 }, "geometry": { "type": "Point", "coordinates": [ -73.65409615890988, 45.699060913315563 ] } },
{ "type": "Feature", "properties": { "NOM": "Saint-Martin", "X": 292128.277100, "Y": 5052386.673800, "TERMINUS": 0, "STATIONNEM": 0, "METRO": 0, "EQUIP": "Stationnement", "longitude": -73.662466, "latitude": 45.611266 }, "geometry": { "type": "Point", "coordinates": [ -73.662465962250707, 45.611266154851059 ] } },
{ "type": "Feature", "properties": { "NOM": "Henri-Bourassa", "X": 291727.946800, "Y": 5046224.088800, "TERMINUS": 0, "STATIONNEM": 0, "METRO": 0, "EQUIP": "Terminus | Metro", "longitude": -73.667434, "latitude": 45.555806 }, "geometry": { "type": "Point", "coordinates": [ -73.667433713263407, 45.555806171775451 ] } },
{ "type": "Feature", "properties": { "NOM": "Gare d'autocars de Montreal", "X": 300016.348400, "Y": 5041753.280600, "TERMINUS": 0, "STATIONNEM": 0, "METRO": 0, "EQUIP": "Terminus | Metro", "longitude": -73.561228, "latitude": 45.515682 }, "geometry": { "type": "Point", "coordinates": [ -73.561227958149615, 45.515682441339074 ] } },
{ "type": "Feature", "properties": { "NOM": "Montcalm-Candiac", "X": 303469.599500, "Y": 5028185.626500, "TERMINUS": 0, "STATIONNEM": 1, "METRO": 0, "EQUIP": "Stationnement", "longitude": -73.516992, "latitude": 45.393609 }, "geometry": { "type": "Point", "coordinates": [ -73.516991653780636, 45.393608958723689 ] } },
{ "type": "Feature", "properties": { "NOM": "Terrebonne - Guzzo", "X": 293255.712600, "Y": 5063275.961700, "TERMINUS": 0, "STATIONNEM": 1, "METRO": 0, "EQUIP": "Stationnement", "longitude": -73.648269, "latitude": 45.709269 }, "geometry": { "type": "Point", "coordinates": [ -73.648269399919656, 45.709269258358354 ] } },
{ "type": "Feature", "properties": { "NOM": "Vercheres", "X": 315750.199800, "Y": 5070689.203700, "TERMINUS": 0, "STATIONNEM": 1, "METRO": 0, "EQUIP": "Stationnement", "longitude": -73.359193, "latitude": 45.775983 }, "geometry": { "type": "Point", "coordinates": [ -73.359193172786675, 45.775983435781001 ] } },
{ "type": "Feature", "properties": { "NOM": "Halte-covoiturage Mirabel", "X": 270669.427300, "Y": 5061281.735700, "TERMINUS": 0, "STATIONNEM": 1, "METRO": 0, "EQUIP": "Stationnement", "longitude": -73.938200, "latitude": 45.690500 }, "geometry": { "type": "Point", "coordinates": [ -73.938211099992955, 45.690580783230004 ] } }
]
}
